[
  {
    "name": "Sydney Olympic Park Aquatic Centre",
    "slug": "sydney-olympic-park-aquatic-centre-sydney",
    "description": "World-class aquatic facility featuring Olympic-sized pools, diving pools, and learn-to-swim programs for all ages. Home to many swimming championships and perfect for competitive and recreational swimming.",
    "category_ids": ["swimming"],
    "address": "Olympic Boulevard",
    "suburb": "Sydney Olympic Park",
    "city": "Sydney",
    "city_slug": "sydney",
    "state_id": "nsw",
    "state": "NSW",
    "postcode": "2127",
    "latitude": -33.8474,
    "longitude": 151.0680,
    "phone": "02 9752 3666",
    "email": "info@aquaticcentre.com.au",
    "website": "https://www.aquaticcentre.com.au",
    "age_min": 3,
    "age_max": 18,
    "indoor": true,
    "outdoor": false,
    "price_range": 2,
    "status": "published",
    "facilities": ["parking", "changing_rooms", "cafe", "equipment_provided", "disability_access"],
    "hours": {
      "monday": { "open": "05:30", "close": "21:00", "closed": false },
      "tuesday": { "open": "05:30", "close": "21:00", "closed": false },
      "wednesday": { "open": "05:30", "close": "21:00", "closed": false },
      "thursday": { "open": "05:30", "close": "21:00", "closed": false },
      "friday": { "open": "05:30", "close": "21:00", "closed": false },
      "saturday": { "open": "07:00", "close": "19:00", "closed": false },
      "sunday": { "open": "07:00", "close": "19:00", "closed": false }
    }
  },
  {
    "name": "Ken Rosewall Arena - Sydney Olympic Park Tennis Centre",
    "slug": "ken-rosewall-arena-sydney-tennis",
    "description": "Premier tennis facility with multiple courts, professional coaching, and junior development programs. Part of the Sydney Olympic Park sports precinct.",
    "category_ids": ["tennis"],
    "address": "Olympic Boulevard",
    "suburb": "Sydney Olympic Park",
    "city": "Sydney",
    "city_slug": "sydney",
    "state_id": "nsw",
    "state": "NSW",
    "postcode": "2127",
    "latitude": -33.8467,
    "longitude": 151.0697,
    "phone": "02 9764 0333",
    "email": "tennis@sydneyolympicpark.com.au",
    "website": "https://www.sydneyolympicpark.com.au/venues/tennis-centre",
    "age_min": 5,
    "age_max": 18,
    "indoor": true,
    "outdoor": true,
    "price_range": 2,
    "status": "published",
    "facilities": ["parking", "changing_rooms", "cafe", "equipment_rental", "professional_coaching"],
    "hours": {
      "monday": { "open": "07:00", "close": "22:00", "closed": false },
      "tuesday": { "open": "07:00", "close": "22:00", "closed": false },
      "wednesday": { "open": "07:00", "close": "22:00", "closed": false },
      "thursday": { "open": "07:00", "close": "22:00", "closed": false },
      "friday": { "open": "07:00", "close": "22:00", "closed": false },
      "saturday": { "open": "07:00", "close": "20:00", "closed": false },
      "sunday": { "open": "07:00", "close": "20:00", "closed": false }
    }
  },
  {
    "name": "Sydney Indoor Climbing Gym",
    "slug": "sydney-indoor-climbing-gym-st-peters",
    "description": "Largest indoor climbing facility in Sydney with walls for all skill levels. Kids programs, school holiday camps, and birthday parties available.",
    "category_ids": ["athletics"],
    "address": "1 Unwins Bridge Road",
    "suburb": "St Peters",
    "city": "Sydney",
    "city_slug": "sydney",
    "state_id": "nsw",
    "state": "NSW",
    "postcode": "2044",
    "latitude": -33.9143,
    "longitude": 151.1787,
    "phone": "02 8399 2122",
    "email": "info@sydneyclimbing.com.au",
    "website": "https://www.sydneyclimbing.com.au",
    "age_min": 4,
    "age_max": 18,
    "indoor": true,
    "outdoor": false,
    "price_range": 2,
    "status": "published",
    "facilities": ["parking", "changing_rooms", "cafe", "equipment_rental", "birthday_parties"],
    "hours": {
      "monday": { "open": "10:00", "close": "22:00", "closed": false },
      "tuesday": { "open": "10:00", "close": "22:00", "closed": false },
      "wednesday": { "open": "10:00", "close": "22:00", "closed": false },
      "thursday": { "open": "10:00", "close": "22:00", "closed": false },
      "friday": { "open": "10:00", "close": "22:00", "closed": false },
      "saturday": { "open": "09:00", "close": "20:00", "closed": false },
      "sunday": { "open": "09:00", "close": "20:00", "closed": false }
    }
  },
  {
    "name": "Melbourne Sports & Aquatic Centre (MSAC)",
    "slug": "melbourne-sports-aquatic-centre-albert-park",
    "description": "Multi-purpose sports facility with Olympic pool, gym, basketball courts, and more. Comprehensive junior sports programs across swimming, basketball, and general fitness.",
    "category_ids": ["swimming", "basketball"],
    "address": "30 Aughtie Drive",
    "suburb": "Albert Park",
    "city": "Melbourne",
    "city_slug": "melbourne",
    "state_id": "vic",
    "state": "VIC",
    "postcode": "3206",
    "latitude": -37.8493,
    "longitude": 144.9712,
    "phone": "03 9926 1555",
    "email": "msac@yarracity.vic.gov.au",
    "website": "https://www.msac.com.au",
    "age_min": 3,
    "age_max": 18,
    "indoor": true,
    "outdoor": false,
    "price_range": 2,
    "status": "published",
    "facilities": ["parking", "changing_rooms", "cafe", "equipment_provided", "disability_access", "professional_coaching"],
    "hours": {
      "monday": { "open": "05:30", "close": "22:00", "closed": false },
      "tuesday": { "open": "05:30", "close": "22:00", "closed": false },
      "wednesday": { "open": "05:30", "close": "22:00", "closed": false },
      "thursday": { "open": "05:30", "close": "22:00", "closed": false },
      "friday": { "open": "05:30", "close": "22:00", "closed": false },
      "saturday": { "open": "07:00", "close": "20:00", "closed": false },
      "sunday": { "open": "07:00", "close": "20:00", "closed": false }
    }
  },
  {
    "name": "Maribyrnong Aquatic Centre",
    "slug": "maribyrnong-aquatic-centre-melbourne",
    "description": "Family-friendly aquatic center with indoor and outdoor pools, water slides, and comprehensive swim school programs for babies through to teens.",
    "category_ids": ["swimming"],
    "address": "corner Farnsworth Avenue & Aquatic Drive",
    "suburb": "Maribyrnong",
    "city": "Melbourne",
    "city_slug": "melbourne",
    "state_id": "vic",
    "state": "VIC",
    "postcode": "3032",
    "latitude": -37.7719,
    "longitude": 144.8831,
    "phone": "03 9032 4444",
    "email": "mac@maribyrnong.vic.gov.au",
    "website": "https://www.maribyrnong.vic.gov.au/MAC",
    "age_min": 1,
    "age_max": 18,
    "indoor": true,
    "outdoor": true,
    "price_range": 1,
    "status": "published",
    "facilities": ["parking", "changing_rooms", "cafe", "waterslides", "birthday_parties"],
    "hours": {
      "monday": { "open": "06:00", "close": "21:00", "closed": false },
      "tuesday": { "open": "06:00", "close": "21:00", "closed": false },
      "wednesday": { "open": "06:00", "close": "21:00", "closed": false },
      "thursday": { "open": "06:00", "close": "21:00", "closed": false },
      "friday": { "open": "06:00", "close": "21:00", "closed": false },
      "saturday": { "open": "07:00", "close": "19:00", "closed": false },
      "sunday": { "open": "07:00", "close": "19:00", "closed": false }
    }
  },
  {
    "name": "South Brisbane Gymnastics Centre",
    "slug": "south-brisbane-gymnastics-centre-brisbane",
    "description": "Dedicated gymnastics facility offering recreational and competitive programs. Classes for tots through to advanced levels with experienced coaches.",
    "category_ids": ["gymnastics"],
    "address": "18 Peel Street",
    "suburb": "South Brisbane",
    "city": "Brisbane",
    "city_slug": "brisbane",
    "state_id": "qld",
    "state": "QLD",
    "postcode": "4101",
    "latitude": -27.4795,
    "longitude": 153.0188,
    "phone": "07 3844 6444",
    "email": "info@sbgymnastics.com.au",
    "website": "https://www.sbgymnastics.com.au",
    "age_min": 2,
    "age_max": 18,
    "indoor": true,
    "outdoor": false,
    "price_range": 2,
    "status": "published",
    "facilities": ["parking", "changing_rooms", "viewing_area", "professional_coaching", "birthday_parties"],
    "hours": {
      "monday": { "open": "09:00", "close": "20:00", "closed": false },
      "tuesday": { "open": "09:00", "close": "20:00", "closed": false },
      "wednesday": { "open": "09:00", "close": "20:00", "closed": false },
      "thursday": { "open": "09:00", "close": "20:00", "closed": false },
      "friday": { "open": "09:00", "close": "20:00", "closed": false },
      "saturday": { "open": "08:00", "close": "14:00", "closed": false },
      "sunday": { "open": "00:00", "close": "00:00", "closed": true }
    }
  },
  {
    "name": "HBF Stadium - State Aquatic Centre Perth",
    "slug": "hbf-stadium-state-aquatic-centre-perth",
    "description": "Western Australia's premier aquatic and leisure facility. Olympic-standard pools, diving facilities, and comprehensive learn-to-swim programs.",
    "category_ids": ["swimming"],
    "address": "Stephenson Avenue",
    "suburb": "Mount Claremont",
    "city": "Perth",
    "city_slug": "perth",
    "state_id": "wa",
    "state": "WA",
    "postcode": "6010",
    "latitude": -31.9644,
    "longitude": 115.7774,
    "phone": "08 6461 0200",
    "email": "hbfstadium@dlgsc.wa.gov.au",
    "website": "https://www.hbfstadium.com.au",
    "age_min": 3,
    "age_max": 18,
    "indoor": true,
    "outdoor": false,
    "price_range": 2,
    "status": "published",
    "facilities": ["parking", "changing_rooms", "cafe", "equipment_provided", "disability_access"],
    "hours": {
      "monday": { "open": "05:30", "close": "21:00", "closed": false },
      "tuesday": { "open": "05:30", "close": "21:00", "closed": false },
      "wednesday": { "open": "05:30", "close": "21:00", "closed": false },
      "thursday": { "open": "05:30", "close": "21:00", "closed": false },
      "friday": { "open": "05:30", "close": "21:00", "closed": false },
      "saturday": { "open": "07:00", "close": "18:00", "closed": false },
      "sunday": { "open": "07:00", "close": "18:00", "closed": false }
    }
  },
  {
    "name": "Adelaide 36ers Basketball Stadium",
    "slug": "adelaide-36ers-basketball-stadium-adelaide",
    "description": "Home of the Adelaide 36ers NBL team. Junior basketball programs, camps, and development pathways for aspiring basketball players.",
    "category_ids": ["basketball"],
    "address": "Port Road",
    "suburb": "Hindmarsh",
    "city": "Adelaide",
    "city_slug": "adelaide",
    "state_id": "sa",
    "state": "SA",
    "postcode": "5007",
    "latitude": -34.9042,
    "longitude": 138.5581,
    "phone": "08 8416 6888",
    "email": "info@adelaide36ers.com",
    "website": "https://www.adelaide36ers.com",
    "age_min": 6,
    "age_max": 18,
    "indoor": true,
    "outdoor": false,
    "price_range": 2,
    "status": "published",
    "facilities": ["parking", "changing_rooms", "equipment_provided", "professional_coaching", "disability_access"],
    "hours": {
      "monday": { "open": "16:00", "close": "20:00", "closed": false },
      "tuesday": { "open": "16:00", "close": "20:00", "closed": false },
      "wednesday": { "open": "16:00", "close": "20:00", "closed": false },
      "thursday": { "open": "16:00", "close": "20:00", "closed": false },
      "friday": { "open": "16:00", "close": "20:00", "closed": false },
      "saturday": { "open": "09:00", "close": "17:00", "closed": false },
      "sunday": { "open": "09:00", "close": "17:00", "closed": false }
    }
  },
  {
    "name": "Koko Dance Studio",
    "slug": "koko-dance-studio-brisbane",
    "description": "Contemporary dance studio offering classes in ballet, jazz, hip hop, and contemporary dance. Programs for toddlers through to advanced dancers.",
    "category_ids": ["dance"],
    "address": "45 Montague Road",
    "suburb": "West End",
    "city": "Brisbane",
    "city_slug": "brisbane",
    "state_id": "qld",
    "state": "QLD",
    "postcode": "4101",
    "latitude": -27.4789,
    "longitude": 153.0065,
    "phone": "07 3844 9722",
    "email": "info@kokodance.com.au",
    "website": "https://www.kokodance.com.au",
    "age_min": 3,
    "age_max": 18,
    "indoor": true,
    "outdoor": false,
    "price_range": 2,
    "status": "published",
    "facilities": ["parking", "changing_rooms", "viewing_area", "professional_coaching"],
    "hours": {
      "monday": { "open": "15:00", "close": "20:00", "closed": false },
      "tuesday": { "open": "15:00", "close": "20:00", "closed": false },
      "wednesday": { "open": "15:00", "close": "20:00", "closed": false },
      "thursday": { "open": "15:00", "close": "20:00", "closed": false },
      "friday": { "open": "15:00", "close": "20:00", "closed": false },
      "saturday": { "open": "09:00", "close": "14:00", "closed": false },
      "sunday": { "open": "00:00", "close": "00:00", "closed": true }
    }
  },
  {
    "name": "Northcote Karate Academy",
    "slug": "northcote-karate-academy-melbourne",
    "description": "Traditional karate school teaching discipline, respect, and self-defense. Classes for children from 4 years, graded belt system and tournament opportunities.",
    "category_ids": ["martial-arts"],
    "address": "125 High Street",
    "suburb": "Northcote",
    "city": "Melbourne",
    "city_slug": "melbourne",
    "state_id": "vic",
    "state": "VIC",
    "postcode": "3070",
    "latitude": -37.7686,
    "longitude": 144.9961,
    "phone": "03 9489 5677",
    "email": "info@northcotekarate.com.au",
    "website": "https://www.northcotekarate.com.au",
    "age_min": 4,
    "age_max": 18,
    "indoor": true,
    "outdoor": false,
    "price_range": 2,
    "status": "published",
    "facilities": ["parking", "changing_rooms", "equipment_provided", "professional_coaching"],
    "hours": {
      "monday": { "open": "16:00", "close": "20:00", "closed": false },
      "tuesday": { "open": "16:00", "close": "20:00", "closed": false },
      "wednesday": { "open": "16:00", "close": "20:00", "closed": false },
      "thursday": { "open": "16:00", "close": "20:00", "closed": false },
      "friday": { "open": "16:00", "close": "20:00", "closed": false },
      "saturday": { "open": "09:00", "close": "12:00", "closed": false },
      "sunday": { "open": "00:00", "close": "00:00", "closed": true }
    }
  },
  {
    "name": "Bondi Beach Soccer School",
    "slug": "bondi-beach-soccer-school-bondi",
    "description": "Beach soccer programs for kids on iconic Bondi Beach. Fun, skill development, and small-sided games in a unique outdoor setting.",
    "category_ids": ["football"],
    "address": "Campbell Parade",
    "suburb": "Bondi Beach",
    "city": "Sydney",
    "city_slug": "sydney",
    "state_id": "nsw",
    "state": "NSW",
    "postcode": "2026",
    "latitude": -33.8908,
    "longitude": 151.2743,
    "phone": "02 9130 3000",
    "email": "info@bondibeachsoccer.com.au",
    "website": "https://www.bondibeachsoccer.com.au",
    "age_min": 5,
    "age_max": 16,
    "indoor": false,
    "outdoor": true,
    "price_range": 2,
    "status": "published",
    "facilities": ["changing_rooms", "equipment_provided", "professional_coaching"],
    "hours": {
      "monday": { "open": "00:00", "close": "00:00", "closed": true },
      "tuesday": { "open": "00:00", "close": "00:00", "closed": true },
      "wednesday": { "open": "00:00", "close": "00:00", "closed": true },
      "thursday": { "open": "00:00", "close": "00:00", "closed": true },
      "friday": { "open": "00:00", "close": "00:00", "closed": true },
      "saturday": { "open": "08:00", "close": "12:00", "closed": false },
      "sunday": { "open": "08:00", "close": "12:00", "closed": false }
    }
  },
  {
    "name": "Morningside Tennis Club",
    "slug": "morningside-tennis-club-brisbane",
    "description": "Community tennis club with excellent junior development program. Professional coaching, social play, and competitive opportunities.",
    "category_ids": ["tennis"],
    "address": "Thynne Road",
    "suburb": "Morningside",
    "city": "Brisbane",
    "city_slug": "brisbane",
    "state_id": "qld",
    "state": "QLD",
    "postcode": "4170",
    "latitude": -27.4659,
    "longitude": 153.0725,
    "phone": "07 3899 3699",
    "email": "info@morningsidetennisclub.com.au",
    "website": "https://www.morningsidetennisclub.com.au",
    "age_min": 5,
    "age_max": 18,
    "indoor": false,
    "outdoor": true,
    "price_range": 1,
    "status": "published",
    "facilities": ["parking", "changing_rooms", "equipment_rental", "professional_coaching", "cafe"],
    "hours": {
      "monday": { "open": "07:00", "close": "21:00", "closed": false },
      "tuesday": { "open": "07:00", "close": "21:00", "closed": false },
      "wednesday": { "open": "07:00", "close": "21:00", "closed": false },
      "thursday": { "open": "07:00", "close": "21:00", "closed": false },
      "friday": { "open": "07:00", "close": "21:00", "closed": false },
      "saturday": { "open": "08:00", "close": "18:00", "closed": false },
      "sunday": { "open": "08:00", "close": "18:00", "closed": false }
    }
  },
  {
    "name": "Perth Athletics Club - WA Athletics Stadium",
    "slug": "perth-athletics-club-wa-stadium",
    "description": "Premier athletics facility with track and field programs for all ages. Sprint, distance, jumping, and throwing events coaching.",
    "category_ids": ["athletics"],
    "address": "Stephenson Avenue",
    "suburb": "Mount Claremont",
    "city": "Perth",
    "city_slug": "perth",
    "state_id": "wa",
    "state": "WA",
    "postcode": "6010",
    "latitude": -31.9625,
    "longitude": 115.7784,
    "phone": "08 9388 2343",
    "email": "info@perthathletics.com.au",
    "website": "https://www.perthathletics.com.au",
    "age_min": 6,
    "age_max": 18,
    "indoor": false,
    "outdoor": true,
    "price_range": 1,
    "status": "published",
    "facilities": ["parking", "changing_rooms", "equipment_provided", "professional_coaching"],
    "hours": {
      "monday": { "open": "16:00", "close": "19:00", "closed": false },
      "tuesday": { "open": "16:00", "close": "19:00", "closed": false },
      "wednesday": { "open": "16:00", "close": "19:00", "closed": false },
      "thursday": { "open": "16:00", "close": "19:00", "closed": false },
      "friday": { "open": "00:00", "close": "00:00", "closed": true },
      "saturday": { "open": "09:00", "close": "12:00", "closed": false },
      "sunday": { "open": "00:00", "close": "00:00", "closed": true }
    }
  },
  {
    "name": "Docklands Gymnastics Club",
    "slug": "docklands-gymnastics-club-melbourne",
    "description": "Modern gymnastics center in Melbourne's Docklands precinct. Recreational and competitive programs with state-of-the-art equipment.",
    "category_ids": ["gymnastics"],
    "address": "440 Docklands Drive",
    "suburb": "Docklands",
    "city": "Melbourne",
    "city_slug": "melbourne",
    "state_id": "vic",
    "state": "VIC",
    "postcode": "3008",
    "latitude": -37.8136,
    "longitude": 144.9492,
    "phone": "03 9642 8888",
    "email": "info@docklandsgymnastics.com.au",
    "website": "https://www.docklandsgymnastics.com.au",
    "age_min": 18,
    "age_max": 18,
    "indoor": true,
    "outdoor": false,
    "price_range": 3,
    "status": "published",
    "facilities": ["parking", "changing_rooms", "cafe", "professional_coaching", "birthday_parties", "disability_access"],
    "hours": {
      "monday": { "open": "09:00", "close": "21:00", "closed": false },
      "tuesday": { "open": "09:00", "close": "21:00", "closed": false },
      "wednesday": { "open": "09:00", "close": "21:00", "closed": false },
      "thursday": { "open": "09:00", "close": "21:00", "closed": false },
      "friday": { "open": "09:00", "close": "21:00", "closed": false },
      "saturday": { "open": "08:00", "close": "16:00", "closed": false },
      "sunday": { "open": "08:00", "close": "16:00", "closed": false }
    }
  },
  {
    "name": "Newtown School of Performing Arts",
    "slug": "newtown-school-performing-arts-sydney",
    "description": "Comprehensive performing arts school offering dance, drama, and musical theater. Programs for children aged 3-18 with regular performances and showcases.",
    "category_ids": ["dance"],
    "address": "185 King Street",
    "suburb": "Newtown",
    "city": "Sydney",
    "city_slug": "sydney",
    "state_id": "nsw",
    "state": "NSW",
    "postcode": "2042",
    "latitude": -33.8954,
    "longitude": 151.1796,
    "phone": "02 9519 3573",
    "email": "info@newtownperformingarts.com.au",
    "website": "https://www.newtownperformingarts.com.au",
    "age_min": 3,
    "age_max": 18,
    "indoor": true,
    "outdoor": false,
    "price_range": 2,
    "status": "published",
    "facilities": ["changing_rooms", "viewing_area", "professional_coaching", "performance_opportunities"],
    "hours": {
      "monday": { "open": "15:00", "close": "20:00", "closed": false },
      "tuesday": { "open": "15:00", "close": "20:00", "closed": false },
      "wednesday": { "open": "15:00", "close": "20:00", "closed": false },
      "thursday": { "open": "15:00", "close": "20:00", "closed": false },
      "friday": { "open": "15:00", "close": "20:00", "closed": false },
      "saturday": { "open": "09:00", "close": "15:00", "closed": false },
      "sunday": { "open": "00:00", "close": "00:00", "closed": true }
    }
  },
  {
    "name": "Sorrento Football Club",
    "slug": "sorrento-football-club-perth",
    "description": "Community-based football club with strong junior development pathway. Weekly training and weekend matches across all age groups.",
    "category_ids": ["football"],
    "address": "Stephens Street",
    "suburb": "Sorrento",
    "city": "Perth",
    "city_slug": "perth",
    "state_id": "wa",
    "state": "WA",
    "postcode": "6020",
    "latitude": -31.8271,
    "longitude": 115.7516,
    "phone": "08 9447 7299",
    "email": "info@sorrentofootballclub.com.au",
    "website": "https://www.sorrentofootballclub.com.au",
    "age_min": 5,
    "age_max": 18,
    "indoor": false,
    "outdoor": true,
    "price_range": 1,
    "status": "published",
    "facilities": ["parking", "changing_rooms", "equipment_provided", "cafe"],
    "hours": {
      "monday": { "open": "00:00", "close": "00:00", "closed": true },
      "tuesday": { "open": "16:30", "close": "18:00", "closed": false },
      "wednesday": { "open": "00:00", "close": "00:00", "closed": true },
      "thursday": { "open": "16:30", "close": "18:00", "closed": false },
      "friday": { "open": "00:00", "close": "00:00", "closed": true },
      "saturday": { "open": "08:00", "close": "16:00", "closed": false },
      "sunday": { "open": "08:00", "close": "16:00", "closed": false }
    }
  },
  {
    "name": "Adelaide Judo Academy",
    "slug": "adelaide-judo-academy-adelaide",
    "description": "Traditional judo training for children and teens. Focus on technique, discipline, and Olympic-style judo. Experienced black belt instructors.",
    "category_ids": ["martial-arts"],
    "address": "152 Morphett Street",
    "suburb": "Adelaide",
    "city": "Adelaide",
    "city_slug": "adelaide",
    "state_id": "sa",
    "state": "SA",
    "postcode": "5000",
    "latitude": -34.9284,
    "longitude": 138.5996,
    "phone": "08 8212 5577",
    "email": "info@adelaidejudo.com.au",
    "website": "https://www.adelaidejudo.com.au",
    "age_min": 5,
    "age_max": 18,
    "indoor": true,
    "outdoor": false,
    "price_range": 2,
    "status": "published",
    "facilities": ["changing_rooms", "equipment_provided", "professional_coaching"],
    "hours": {
      "monday": { "open": "17:00", "close": "20:00", "closed": false },
      "tuesday": { "open": "17:00", "close": "20:00", "closed": false },
      "wednesday": { "open": "17:00", "close": "20:00", "closed": false },
      "thursday": { "open": "17:00", "close": "20:00", "closed": false },
      "friday": { "open": "17:00", "close": "20:00", "closed": false },
      "saturday": { "open": "09:00", "close": "12:00", "closed": false },
      "sunday": { "open": "00:00", "close": "00:00", "closed": true }
    }
  },
  {
    "name": "Yeronga Devils Basketball Club",
    "slug": "yeronga-devils-basketball-club-brisbane",
    "description": "Youth basketball club with teams competing in QBL and local competitions. Development programs for beginners through to elite players.",
    "category_ids": ["basketball"],
    "address": "Ipswich Road",
    "suburb": "Yeronga",
    "city": "Brisbane",
    "city_slug": "brisbane",
    "state_id": "qld",
    "state": "QLD",
    "postcode": "4104",
    "latitude": -27.5269,
    "longitude": 153.0105,
    "phone": "07 3892 2233",
    "email": "info@yerongadevils.com.au",
    "website": "https://www.yerongadevils.com.au",
    "age_min": 6,
    "age_max": 18,
    "indoor": true,
    "outdoor": false,
    "price_range": 2,
    "status": "published",
    "facilities": ["parking", "changing_rooms", "equipment_provided", "professional_coaching"],
    "hours": {
      "monday": { "open": "16:00", "close": "20:00", "closed": false },
      "tuesday": { "open": "16:00", "close": "20:00", "closed": false },
      "wednesday": { "open": "16:00", "close": "20:00", "closed": false },
      "thursday": { "open": "16:00", "close": "20:00", "closed": false },
      "friday": { "open": "16:00", "close": "20:00", "closed": false },
      "saturday": { "open": "08:00", "close": "18:00", "closed": false },
      "sunday": { "open": "08:00", "close": "18:00", "closed": false }
    }
  },
  {
    "name": "Sydney Taekwondo Centre",
    "slug": "sydney-taekwondo-centre-chatswood",
    "description": "Olympic-style taekwondo training for children. Focus on fitness, discipline, self-defense, and competitive sparring. Regular grading and tournaments.",
    "category_ids": ["martial-arts"],
    "address": "376 Pacific Highway",
    "suburb": "Chatswood",
    "city": "Sydney",
    "city_slug": "sydney",
    "state_id": "nsw",
    "state": "NSW",
    "postcode": "2067",
    "latitude": -33.7969,
    "longitude": 151.1830,
    "phone": "02 9411 8877",
    "email": "info@sydneytaekwondo.com.au",
    "website": "https://www.sydneytaekwondo.com.au",
    "age_min": 4,
    "age_max": 18,
    "indoor": true,
    "outdoor": false,
    "price_range": 2,
    "status": "published",
    "facilities": ["parking", "changing_rooms", "equipment_rental", "professional_coaching"],
    "hours": {
      "monday": { "open": "16:00", "close": "20:00", "closed": false },
      "tuesday": { "open": "16:00", "close": "20:00", "closed": false },
      "wednesday": { "open": "16:00", "close": "20:00", "closed": false },
      "thursday": { "open": "16:00", "close": "20:00", "closed": false },
      "friday": { "open": "16:00", "close": "20:00", "closed": false },
      "saturday": { "open": "09:00", "close": "13:00", "closed": false },
      "sunday": { "open": "00:00", "close": "00:00", "closed": true }
    }
  },
  {
    "name": "Carlton Football Club Next Generation Academy",
    "slug": "carlton-football-club-next-gen-melbourne",
    "description": "AFL junior development program run by Carlton Football Club. Skills clinics, school holiday programs, and talent pathway for aspiring AFL players.",
    "category_ids": ["football"],
    "address": "Princes Park",
    "suburb": "Carlton North",
    "city": "Melbourne",
    "city_slug": "melbourne",
    "state_id": "vic",
    "state": "VIC",
    "postcode": "3054",
    "latitude": -37.7838,
    "longitude": 144.9647,
    "phone": "03 8563 3888",
    "email": "academy@carltonfc.com.au",
    "website": "https://www.carltonfc.com.au/academy",
    "age_min": 8,
    "age_max": 18,
    "indoor": false,
    "outdoor": true,
    "price_range": 3,
    "status": "published",
    "facilities": ["parking", "changing_rooms", "equipment_provided", "professional_coaching", "cafe"],
    "hours": {
      "monday": { "open": "16:00", "close": "19:00", "closed": false },
      "tuesday": { "open": "16:00", "close": "19:00", "closed": false },
      "wednesday": { "open": "16:00", "close": "19:00", "closed": false },
      "thursday": { "open": "16:00", "close": "19:00", "closed": false },
      "friday": { "open": "00:00", "close": "00:00", "closed": true },
      "saturday": { "open": "09:00", "close": "15:00", "closed": false },
      "sunday": { "open": "09:00", "close": "15:00", "closed": false }
    }
  }
]
